{
"type": "FeatureCollection",
"name": "estados-nombres",
"crs": { "type": "name", "properties": { "name": "urn:ogc:def:crs:OGC:1.3:CRS84" } },
"features": [
{ "type": "Feature", "properties": { "CVEGEO": "01", "NOMBRE": "Aguascalientes" }, "geometry": { "type": "Point", "coordinates": [ -102.36202124153867, 22.006361152553097 ] } },
{ "type": "Feature", "properties": { "CVEGEO": "02", "NOMBRE": "Baja California" }, "geometry": { "type": "Point", "coordinates": [ -115.082686932671479, 30.545174800087953 ] } },
{ "type": "Feature", "properties": { "CVEGEO": "03", "NOMBRE": "Baja California Sur" }, "geometry": { "type": "Point", "coordinates": [ -112.041920437321906, 25.910643012039369 ] } },
{ "type": "Feature", "properties": { "CVEGEO": "04", "NOMBRE": "Campeche" }, "geometry": { "type": "Point", "coordinates": [ -90.362203948206954, 18.83836342735523 ] } },
{ "type": "Feature", "properties": { "CVEGEO": "05", "NOMBRE": "Coahuila" }, "geometry": { "type": "Point", "coordinates": [ -102.044316808941545, 27.287648446539301 ] } },
{ "type": "Feature", "properties": { "CVEGEO": "06", "NOMBRE": "Colima" }, "geometry": { "type": "Point", "coordinates": [ -104.118439744330999, 19.135429093607755 ] } },
{ "type": "Feature", "properties": { "CVEGEO": "07", "NOMBRE": "Chiapas" }, "geometry": { "type": "Point", "coordinates": [ -92.47305494447474, 16.482804302902718 ] } },
{ "type": "Feature", "properties": { "CVEGEO": "08", "NOMBRE": "Chihuahua" }, "geometry": { "type": "Point", "coordinates": [ -106.46411889019106, 28.802659614999186 ] } },
{ "type": "Feature", "properties": { "CVEGEO": "09", "NOMBRE": "Ciudad de México" }, "geometry": { "type": "Point", "coordinates": [ -99.139387743054812, 19.276795025817727 ] } },
{ "type": "Feature", "properties": { "CVEGEO": "10", "NOMBRE": "Durango" }, "geometry": { "type": "Point", "coordinates": [ -104.91245166328666, 24.919589205360239 ] } },
{ "type": "Feature", "properties": { "CVEGEO": "11", "NOMBRE": "Guanajuato" }, "geometry": { "type": "Point", "coordinates": [ -101.013293049902543, 20.904436397137943 ] } },
{ "type": "Feature", "properties": { "CVEGEO": "12", "NOMBRE": "Guerrero" }, "geometry": { "type": "Point", "coordinates": [ -99.91723220862221, 17.668314287922048 ] } },
{ "type": "Feature", "properties": { "CVEGEO": "13", "NOMBRE": "Hidalgo" }, "geometry": { "type": "Point", "coordinates": [ -98.887018302733253, 20.478746422489365 ] } },
{ "type": "Feature", "properties": { "CVEGEO": "14", "NOMBRE": "Jalisco" }, "geometry": { "type": "Point", "coordinates": [ -103.616908977563483, 20.577834525317336 ] } },
{ "type": "Feature", "properties": { "CVEGEO": "15", "NOMBRE": "Estado de México" }, "geometry": { "type": "Point", "coordinates": [ -99.646503029746356, 19.355130948225671 ] } },
{ "type": "Feature", "properties": { "CVEGEO": "16", "NOMBRE": "Michoacán" }, "geometry": { "type": "Point", "coordinates": [ -101.880868068397021, 19.206339621367032 ] } },
{ "type": "Feature", "properties": { "CVEGEO": "17", "NOMBRE": "Morelos" }, "geometry": { "type": "Point", "coordinates": [ -99.074946715169744, 18.741920397996218 ] } },
{ "type": "Feature", "properties": { "CVEGEO": "18", "NOMBRE": "Nayarit" }, "geometry": { "type": "Point", "coordinates": [ -104.853543945592151, 21.800444239355269 ] } },
{ "type": "Feature", "properties": { "CVEGEO": "19", "NOMBRE": "Nuevo León" }, "geometry": { "type": "Point", "coordinates": [ -99.968676131054451, 25.566403275726028 ] } },
{ "type": "Feature", "properties": { "CVEGEO": "20", "NOMBRE": "Oaxaca" }, "geometry": { "type": "Point", "coordinates": [ -96.427947783148781, 16.961364670937538 ] } },
{ "type": "Feature", "properties": { "CVEGEO": "21", "NOMBRE": "Puebla" }, "geometry": { "type": "Point", "coordinates": [ -97.901232478685642, 19.002110443650508 ] } },
{ "type": "Feature", "properties": { "CVEGEO": "22", "NOMBRE": "Querétaro" }, "geometry": { "type": "Point", "coordinates": [ -99.847297004021385, 20.854445233647624 ] } },
{ "type": "Feature", "properties": { "CVEGEO": "23", "NOMBRE": "Quintana Roo" }, "geometry": { "type": "Point", "coordinates": [ -88.117767772760658, 19.595676639097849 ] } },
{ "type": "Feature", "properties": { "CVEGEO": "24", "NOMBRE": "San Luis Potosí" }, "geometry": { "type": "Point", "coordinates": [ -100.410428342075917, 22.584265401062577 ] } },
{ "type": "Feature", "properties": { "CVEGEO": "25", "NOMBRE": "Sinaloa" }, "geometry": { "type": "Point", "coordinates": [ -107.494976643386352, 24.996486770670227 ] } },
{ "type": "Feature", "properties": { "CVEGEO": "26", "NOMBRE": "Sonora" }, "geometry": { "type": "Point", "coordinates": [ -110.791984270253138, 29.684636449576235 ] } },
{ "type": "Feature", "properties": { "CVEGEO": "27", "NOMBRE": "Tabasco" }, "geometry": { "type": "Point", "coordinates": [ -92.592355892043145, 17.939350278249432 ] } },
{ "type": "Feature", "properties": { "CVEGEO": "28", "NOMBRE": "Tamaulipas" }, "geometry": { "type": "Point", "coordinates": [ -98.642463869195055, 24.282041685900747 ] } },
{ "type": "Feature", "properties": { "CVEGEO": "29", "NOMBRE": "Tlaxcala" }, "geometry": { "type": "Point", "coordinates": [ -98.168409356635109, 19.428584263392533 ] } },
{ "type": "Feature", "properties": { "CVEGEO": "30", "NOMBRE": "Veracruz" }, "geometry": { "type": "Point", "coordinates": [ -96.389585423756685, 19.379118818583674 ] } },
{ "type": "Feature", "properties": { "CVEGEO": "31", "NOMBRE": "Yucatán" }, "geometry": { "type": "Point", "coordinates": [ -88.929480123950583, 20.762020073856949 ] } },
{ "type": "Feature", "properties": { "CVEGEO": "32", "NOMBRE": "Zacatecas" }, "geometry": { "type": "Point", "coordinates": [ -102.664681452782531, 23.283990877857814 ] } }
]
}
